City_ID,City,Lat,Lng,Max Temp,Humidity,Cloudiness,Wind Speed,Country,Date
0,assiniboia,49.6334,-105.9845,295.05,30,14,2.57,CA,1684103837
1,barrow,71.2906,-156.7887,276.16,81,75,11.83,US,1684103724
2,sitka,57.0531,-135.33,289.09,63,75,2.57,US,1684103837
3,pitimbu,-7.4706,-34.8086,301.48,78,23,4.3,BR,1684103657
4,lebu,-37.6167,-73.65,285.71,88,97,5.69,CL,1684103838
5,port elizabeth,-33.918,25.5701,286.1,85,20,2.06,ZA,1684103783
6,qaanaaq,77.484,-69.3632,262.1,77,4,1.39,GL,1684103838
7,victoria,22.2855,114.1577,296.45,95,100,3.14,HK,1684103587
8,mataura,-46.1927,168.8643,281.19,83,93,0.99,NZ,1684103838
9,vardo,70.3705,31.1107,280.14,81,100,1.03,NO,1684103838
10,port alfred,-33.5906,26.891,286.58,81,60,0.45,ZA,1684103839
11,carinhanha,-14.3047,-43.765,299.07,62,100,2.67,BR,1684103839
12,marondera,-18.1853,31.5519,284.93,81,21,2.35,ZW,1684103839
13,mataram,-8.5833,116.1167,293.6,78,7,3.71,ID,1684103840
14,kemijarvi,66.7131,27.4306,280.69,80,54,2.43,FI,1684103840
15,mattoon,39.4831,-88.3728,300.12,61,40,3.09,US,1684103841
16,vaini,-21.2,-175.2,298.24,65,75,4.63,TO,1684103841
17,atuona,-9.8,-139.0333,299.71,69,46,5.01,PF,1684103842
18,husavik,66.0449,-17.3389,271.83,78,93,7.95,IS,1684103842
19,honiara,-9.4333,159.95,303.41,68,31,0.79,SB,1684103842
20,castro,-24.7911,-50.0119,284.9,70,29,0.56,BR,1684103843
21,saint george,37.1041,-113.5841,301.72,25,20,8.23,US,1684103746
22,busselton,-33.65,115.3333,288.6,64,100,0.96,AU,1684103843
23,butaritari,3.0707,172.7902,301.67,80,100,7.36,KI,1684103844
24,bonavista,48.6499,-53.1147,278.0,81,65,8.36,CA,1684103844
25,kodiak,57.79,-152.4072,281.88,81,100,5.14,US,1684103844
26,yellowknife,62.456,-114.3525,294.44,23,40,7.2,CA,1684103567
27,bowen,-20.0167,148.2333,295.95,76,93,4.04,AU,1684103769
28,rikitea,-23.1203,-134.9692,298.03,77,3,4.83,PF,1684103845
29,trairi,-3.2778,-39.2689,299.27,84,17,3.79,BR,1684103846
30,caravelas,-17.7125,-39.2481,296.5,85,5,1.6,BR,1684103846
31,punta arenas,-53.15,-70.9167,280.21,87,100,3.6,CL,1684103846
32,oranjestad,12.524,-70.027,301.12,86,20,8.23,AW,1684103576
33,raudeberg,61.9875,5.1352,281.41,57,100,7.27,NO,1684103847
34,reconquista,-29.15,-59.65,291.42,54,0,3.63,AR,1684103847
35,ikot ekpene,5.1794,7.7108,297.86,95,94,1.79,NG,1684103847
36,carnarvon,-24.8667,113.6333,290.73,48,0,6.45,AU,1684103847
37,havre-saint-pierre,50.2334,-63.5986,280.35,53,100,7.72,CA,1684103847
38,ossora,59.2353,163.0719,275.33,85,15,1.57,RU,1684103595
39,rawson,-43.3002,-65.1023,289.53,60,100,4.82,AR,1684103848
40,cherskiy,68.75,161.3,265.47,83,57,2.52,RU,1684103602
41,verkhniye sergi,56.6469,59.5556,280.48,98,100,1.34,RU,1684103848
42,buckingham,51.9997,-0.9878,286.63,82,100,3.5,GB,1684103848
43,albany,42.6001,-73.9662,291.38,32,52,1.34,US,1684103819
44,hermanus,-34.4187,19.2345,284.15,73,1,4.69,ZA,1684103849
45,hithadhoo,-0.6,73.0833,301.57,78,100,7.8,MV,1684103849
46,liverpool,53.4106,-2.9779,284.42,80,20,4.63,GB,1684103726
47,wuchang,44.9143,127.15,289.4,63,96,7.72,CN,1684103850
48,klaksvik,62.2266,-6.589,279.66,80,1,10.16,FO,1684103851
49,saldanha,-33.0117,17.9442,285.18,70,0,5.07,ZA,1684103851
50,puerto ayora,-0.7393,-90.3518,302.13,90,98,2.24,EC,1684103851
51,thonon-les-bains,46.25,6.5,280.65,89,75,1.38,FR,1684103851
52,georgetown,5.4112,100.3354,301.11,94,20,1.54,MY,1684103852
53,lima,-12.0432,-77.0282,297.29,65,0,6.69,PE,1684103695
54,dingle,10.9995,122.6711,300.49,80,28,0.7,PH,1684103852
55,kabalo,-6.05,26.9167,296.0,78,46,1.24,CD,1684103852
56,kaniama,-7.5667,24.1833,295.95,66,75,0.97,CD,1684103852
57,porto seguro,-16.4497,-39.0647,297.44,94,75,1.54,BR,1684103852
58,the valley,18.217,-63.0578,301.23,78,20,4.63,AI,1684103650
59,katsuura,35.1333,140.3,290.16,78,100,6.95,JP,1684103853
60,vallenar,-28.5708,-70.7581,292.55,64,45,1.92,CL,1684103853
61,san vicente,-26.6167,-54.1333,285.97,70,57,0.64,AR,1684103853
62,jiuquan,39.7432,98.5174,291.76,17,99,2.52,CN,1684103853
63,paragominas,-2.9667,-47.4833,296.66,98,80,1.63,BR,1684103854
64,kloulklubed,7.0419,134.2556,298.43,68,74,2.87,PW,1684103854
65,ushuaia,-54.8,-68.3,282.96,53,0,6.69,AR,1684103738
66,cidreira,-30.1811,-50.2056,290.7,78,46,2.66,BR,1684103854
67,sabha,27.0377,14.4283,302.91,11,50,5.22,LY,1684103854
68,calhoun,42.2506,-85.0005,292.23,24,75,3.09,US,1684103854
69,dikson,73.5069,80.5464,266.88,88,100,6.6,RU,1684103592
70,bluff,-46.6,168.3333,281.37,77,96,5.11,NZ,1684103855
71,horconcitos,8.4682,-81.8007,296.94,84,93,1.77,PA,1684103855
72,grafton,42.207,-71.6856,291.77,33,0,5.66,US,1684103556
73,new norfolk,-42.7826,147.0587,287.55,51,44,1.34,AU,1684103855
74,kijang,35.2442,129.2139,288.0,71,2,0.82,KR,1684103855
75,cape town,-33.9258,18.4232,289.21,64,0,5.14,ZA,1684103489
76,gulu,2.7746,32.299,292.8,76,51,2.32,UG,1684103856
77,georgiyevskoye,58.731,45.024,277.62,84,22,0.45,RU,1684103856
78,labuhan,-6.8844,112.2051,296.49,85,33,3.31,ID,1684103856
79,saint-pierre,-21.3393,55.4781,296.97,64,0,2.57,RE,1684103856
80,kavieng,-2.5744,150.7967,301.81,75,44,1.94,PG,1684103857
81,kalmunai,7.4167,81.8167,300.26,82,100,0.75,LK,1684103857
82,upernavik,72.7868,-56.1549,266.85,84,32,2.71,GL,1684103857
83,touros,-5.1989,-35.4608,299.73,81,19,4.75,BR,1684103654
84,ribeira grande,38.5167,-28.7,291.91,89,100,3.13,PT,1684103858
85,platonovka,52.7106,41.952,280.94,94,14,3.38,RU,1684103858
86,ranot,7.7777,100.3213,300.75,77,21,2.91,TH,1684103858
87,jamestown,42.097,-79.2353,288.92,44,0,5.14,US,1684103729
88,buraydah,26.326,43.975,300.4,11,100,4.86,SA,1684103858
89,avarua,-21.2078,-159.775,300.18,74,40,3.09,CK,1684103859
90,paamiut,61.994,-49.6678,273.36,83,11,4.9,GL,1684103860
91,mount pleasant,32.7941,-79.8626,300.47,84,40,4.12,US,1684103763
92,nemuro,43.3236,145.575,281.09,90,100,7.79,JP,1684103860
93,kahului,20.8947,-156.47,300.16,68,75,6.17,US,1684103860
94,fortuna,40.5982,-124.1573,300.89,67,40,5.66,US,1684103860
95,east london,-33.0153,27.9116,289.88,69,100,4.4,ZA,1684103860
96,hilo,19.7297,-155.09,302.75,75,75,3.09,US,1684103861
97,ipora,-16.4419,-51.1178,292.59,58,67,2.03,BR,1684103861
98,kruisfontein,-34.0033,24.7314,284.75,80,75,1.56,ZA,1684103861
99,hervey bay,-25.2986,152.8535,294.73,79,71,5.89,AU,1684103861
100,madang,-5.2246,145.7966,298.05,95,100,1.6,PG,1684103861
101,channel-port aux basques,47.5702,-59.1367,277.66,94,100,9.03,CA,1684103861
102,lavrentiya,65.5833,-171.0,272.26,95,100,1.03,RU,1684103862
103,bredasdorp,-34.5322,20.0403,285.7,69,64,1.91,ZA,1684103862
104,port blair,11.6667,92.75,301.96,79,100,6.24,IN,1684103862
105,naze,28.3667,129.4833,293.66,73,100,2.69,JP,1684103862
106,banyo,6.75,11.8167,293.46,85,100,1.11,CM,1684103862
107,iqaluit,63.7506,-68.5145,271.0,92,100,4.02,CA,1684103862
108,pevek,69.7008,170.3133,264.09,85,99,2.15,RU,1684103863
109,korla,41.7597,86.1469,293.15,34,95,3.15,CN,1684103863
110,nikolskoye,59.7035,30.7861,284.09,62,95,1.38,RU,1684103863
111,saint-philippe,-21.3585,55.7679,296.92,79,15,1.56,RE,1684103863
112,dargaville,-35.9333,173.8833,289.63,79,25,4.55,NZ,1684103864
113,beloha,-25.1667,45.05,293.39,97,15,2.8,MG,1684103864
114,virginia beach,36.8529,-75.978,295.18,51,40,4.12,US,1684103864
115,naron,43.5167,-8.1528,287.92,92,91,1.83,ES,1684103864
116,shambu,9.5667,37.1,288.53,59,87,0.86,ET,1684103864
117,buritizeiro,-17.3511,-44.9622,295.65,46,0,2.14,BR,1684103658
118,lilongwe,-13.9669,33.7873,290.23,68,35,1.23,MW,1684103865
119,clyde river,70.4692,-68.5914,266.28,93,100,5.66,CA,1684103865
120,acheres,48.9612,2.0688,287.2,89,0,3.6,FR,1684103865
121,colares,38.7992,-9.4469,289.68,79,45,11.62,PT,1684103865
122,northam,51.0333,-4.2167,284.96,97,100,7.03,GB,1684103866
123,denpasar,-8.65,115.2167,298.96,78,40,4.63,ID,1684103736
124,moron,-34.6534,-58.6198,295.35,61,75,1.7,AR,1684103866
125,zhuhai,22.2769,113.5678,295.03,88,40,2.57,CN,1684103596
126,ponta do sol,32.6667,-17.1,292.6,65,12,4.0,PT,1684103866
127,fortuna foothills,32.6578,-114.4119,311.79,12,0,4.12,US,1684103866
128,hobart,-42.8794,147.3294,287.74,57,41,0.89,AU,1684103867
129,hamilton,39.1834,-84.5333,299.26,52,20,3.6,US,1684103867
130,tiksi,71.6872,128.8694,265.03,73,15,1.39,RU,1684103867
131,kaitangata,-46.2817,169.8464,281.44,98,57,2.32,NZ,1684103867
132,neryungri,56.6709,124.6491,274.36,98,100,3.71,RU,1684103867
133,bubaque,11.2833,-15.8333,299.69,73,92,7.97,GW,1684103868
134,nelson bay,-32.7167,152.15,288.71,99,10,3.13,AU,1684103868
135,arraial do cabo,-22.9661,-42.0278,295.07,78,0,3.09,BR,1684103869
136,nesna,66.1967,13.0213,286.3,65,49,2.9,NO,1684103869
137,kapaa,22.0752,-159.319,301.14,73,100,8.75,US,1684103649
138,saint-augustin,51.226,-58.6502,277.97,72,100,7.69,CA,1684103870
139,ambon,-3.6954,128.1814,300.23,14,40,4.12,ID,1684103870
140,dandong,40.1292,124.3947,288.83,73,23,3.86,CN,1684103870
141,acapulco,16.8634,-99.8901,304.05,66,20,4.12,MX,1684103818
142,asau,46.4333,26.4,284.66,80,99,0.54,RO,1684103870
143,wanning,18.8003,110.3967,296.58,92,56,1.81,CN,1684103870
144,tungor,53.3808,142.9564,285.15,72,46,4.83,RU,1684103871
145,mount gambier,-37.8333,140.7667,284.22,65,0,2.38,AU,1684103781
146,usinsk,65.9939,57.5281,275.64,93,100,6.78,RU,1684103871
147,haradok,55.4624,29.9816,283.41,78,25,1.56,BY,1684103871
148,bilibino,68.0546,166.4372,266.02,80,30,1.54,RU,1684103871
149,jalu,29.0331,21.5482,298.82,22,66,5.18,LY,1684103871
150,gwanda,-20.9333,29.0,290.07,58,39,3.01,ZW,1684103872
151,mgachi,51.05,142.2667,289.48,37,88,5.82,RU,1684103872
152,agirish,61.9247,63.0231,275.79,78,99,3.48,RU,1684103872
153,tasiilaq,65.6145,-37.6368,274.24,91,94,0.61,GL,1684103872
154,juneau,58.3019,-134.4197,289.15,100,75,5.66,US,1684103617
155,masumbwe,-3.6333,32.1833,292.59,74,46,0.79,TZ,1684103873
156,saskylakh,71.9167,114.0833,264.68,89,15,2.44,RU,1684103873
157,faanui,-16.4833,-151.75,300.46,73,18,1.66,PF,1684103873
158,tuktoyaktuk,69.4541,-133.0374,280.15,70,20,4.12,CA,1684103873
159,bandarbeyla,9.4942,50.8122,300.55,86,60,9.81,SO,1684103873
160,bambous virieux,-20.3428,57.7575,296.6,94,40,2.06,MU,1684103873
161,san patricio,28.017,-97.5169,304.12,57,100,3.48,US,1684103874
162,danane,7.2596,-8.155,295.79,99,98,1.25,CI,1684103874
163,mahebourg,-20.4081,57.7,296.62,94,40,2.06,MU,1684103874
164,guerrero negro,27.9769,-114.0611,293.81,56,0,6.13,MX,1684103874
165,souillac,-20.5167,57.5167,295.36,94,40,2.06,MU,1684103874
166,shimoda,34.6667,138.95,287.65,94,100,3.52,JP,1684103874
167,bethel,41.3712,-73.414,292.32,39,0,4.12,US,1684103875
168,naryan-mar,67.6713,53.087,274.35,90,100,5.72,RU,1684103875
169,vostok,46.4856,135.8833,282.31,62,100,1.58,RU,1684103875
170,severo-kurilsk,50.6789,156.125,282.03,65,62,3.58,RU,1684103875
171,cabo san lucas,22.8909,-109.9124,302.38,53,0,5.66,MX,1684103750
172,aasiaat,68.7098,-52.8699,267.48,83,95,2.86,GL,1684103876
173,la ronge,55.1001,-105.2842,297.29,23,75,4.12,CA,1684103876
174,buala,-8.145,159.5921,302.51,74,73,0.75,SB,1684103876
175,ciudad bolivar,8.1222,-63.5497,308.46,30,91,4.5,VE,1684103876
176,port pirie,-33.1833,138.0167,290.45,48,100,1.63,AU,1684103876
177,laguna,38.421,-121.4238,307.83,32,0,6.17,US,1684103877
178,lae,-6.7221,146.9847,301.52,74,89,2.0,PG,1684103877
179,zhanaozen,43.3,52.8,284.4,84,100,7.94,KZ,1684103877
180,arkansas city,37.062,-97.0384,296.97,78,75,5.66,US,1684103644
181,lingao,19.9103,109.6859,296.39,90,84,1.67,CN,1684103877
182,hukuntsi,-24.0,21.75,285.97,39,15,1.47,BW,1684103878
183,antofagasta,-23.65,-70.4,293.75,84,43,0.88,CL,1684103879
184,discovery bay,37.9085,-121.6002,307.2,38,0,5.66,US,1684103879
185,provideniya,64.3833,-173.3,273.21,55,20,8.0,RU,1684103879
186,avera,33.194,-82.5271,304.18,60,100,3.2,US,1684103879
187,north platte,41.1239,-100.7654,286.09,88,100,7.15,US,1684103880
188,thibodaux,29.7958,-90.8229,305.92,59,16,1.79,US,1684103880
189,hereford,52.0568,-2.7148,285.75,91,100,4.11,GB,1684103880
190,ambilobe,-13.2,49.05,294.51,94,19,1.44,MG,1684103880
191,bathurst,-33.4166,149.5806,281.94,74,12,0.99,AU,1684103880
192,tucurui,-3.7661,-49.6725,297.79,95,93,0.97,BR,1684103880
193,tyrma,50.0833,132.1667,288.29,64,20,5.59,RU,1684103881
194,biak,-0.9131,122.8766,298.68,84,77,1.88,ID,1684103881
195,tuatapere,-46.1333,167.6833,282.56,79,86,1.69,NZ,1684103881
196,qui nhon,13.7667,109.2333,298.99,89,87,2.18,VN,1684103881
197,forio,40.7342,13.8646,289.0,92,99,4.89,IT,1684103881
198,rio grande,-32.035,-52.0986,289.21,79,74,2.21,BR,1684103882
199,talas,38.6908,35.5538,280.52,76,0,2.57,TR,1684103882
200,malegaon,20.55,74.5333,300.45,54,0,5.89,IN,1684103882
201,maine-soroa,13.2114,12.0241,306.11,13,24,3.0,NE,1684103882
202,bulaevo,54.9056,70.4439,279.71,81,6,3.13,KZ,1684103882
203,pochutla,15.7432,-96.4661,304.72,55,82,3.09,MX,1684103883
204,thompson,55.7435,-97.8558,302.24,24,75,9.77,CA,1684103883
205,camana,-16.6228,-72.7111,293.62,85,4,2.0,PE,1684103883
206,ostrovnoy,68.0531,39.5131,277.65,85,97,4.88,RU,1684103883
207,lagoa,39.05,-27.9833,290.16,85,100,4.17,PT,1684103883
208,brae,60.3964,-1.353,280.57,84,11,4.71,GB,1684103884
209,lorengau,-2.0226,147.2712,302.8,70,27,0.78,PG,1684103884
210,kidal,18.4411,1.4078,307.41,24,85,6.79,ML,1684103884
211,samarai,-10.6167,150.6667,300.99,78,71,0.1,PG,1684103884
212,pareora,-44.4871,171.2132,285.47,76,8,0.99,NZ,1684103884
213,lata,40.1629,-8.3327,287.64,97,81,1.16,PT,1684103885
214,santiago,-33.4569,-70.6483,296.23,54,0,5.66,CL,1684103595
215,burhanpur,21.3,76.2333,303.8,41,0,3.76,IN,1684103885
216,pangai,-19.8,-174.35,299.21,73,75,6.17,TO,1684103885
217,pathein,16.7833,94.7333,298.26,91,100,3.29,MM,1684103885
218,chichli,22.8333,78.8167,303.96,22,75,2.42,IN,1684103885
219,taoudenni,22.6783,-3.9836,307.73,11,58,7.01,ML,1684103886
220,roznava,48.6601,20.5376,284.3,99,100,1.53,SK,1684103886
221,christchurch,-43.5333,172.6333,283.41,91,100,5.14,NZ,1684103842
222,farafangana,-22.8167,47.8333,296.84,83,86,2.94,MG,1684103886
223,anchorage,61.2181,-149.9003,288.36,49,0,8.23,US,1684103872
224,tambura,5.6,27.4667,298.94,54,94,0.98,SS,1684103887
225,poum,-20.2333,164.0167,298.37,72,94,6.47,NC,1684103887
226,stephenville,32.2207,-98.2023,300.46,64,75,1.54,US,1684103887
227,esperance,-33.8667,121.9,287.66,71,100,2.11,AU,1684103888
228,ucluelet,48.9329,-125.5528,301.32,61,0,0.99,CA,1684103888
229,tazovskiy,67.4667,78.7,270.25,96,100,6.73,RU,1684103888
230,batemans bay,-35.7167,150.1833,285.98,65,13,1.33,AU,1684103889
231,leningradskiy,69.3833,178.4167,264.84,82,39,7.14,RU,1684103889
232,high prairie,55.4334,-116.4858,302.2,26,37,3.44,CA,1684103889
233,xichang,27.8964,102.2634,286.67,90,100,0.91,CN,1684103889
234,nizwa,22.9333,57.5333,302.51,15,0,1.5,OM,1684103890
235,gizo,-8.103,156.8419,302.13,76,47,1.74,SB,1684103890
236,spas,48.8899,24.0629,284.27,79,99,1.45,UA,1684103890
237,yong peng,2.0136,103.0659,297.43,96,29,0.88,MY,1684103890
238,port augusta,-32.5,137.7667,290.55,46,100,0.98,AU,1684103891
239,chokurdakh,70.6333,147.9167,266.16,92,86,2.65,RU,1684103891
240,dunedin,-45.8742,170.5036,283.27,77,3,1.83,NZ,1684103891
241,constitucion,-35.3333,-72.4167,287.51,91,81,5.42,CL,1684103864
242,bambanglipuro,-7.95,110.2833,296.59,85,70,2.61,ID,1684103891
243,ixtapa,20.7,-105.2,301.61,69,0,5.66,MX,1684103891
244,arenapolis,-14.4503,-56.8461,295.14,77,85,0.92,BR,1684103891
245,qaqortoq,60.7167,-46.0333,274.79,86,45,1.14,GL,1684103892
246,almaznyy,48.0448,40.045,283.8,86,39,2.92,RU,1684103892
247,broome,42.2506,-75.833,287.69,49,0,6.69,US,1684103892
248,launceston,-41.45,147.1667,284.9,93,100,5.66,AU,1684103892
249,moshenskoye,58.5102,34.5911,283.83,72,91,2.0,RU,1684103893
250,comodoro rivadavia,-45.8667,-67.5,288.07,72,0,2.06,AR,1684103893
251,batagay,67.6333,134.6333,275.09,69,43,2.28,RU,1684103893
252,baykit,61.67,96.37,267.15,89,82,3.6,RU,1684103893
253,chokwe,-24.5333,32.9833,293.17,89,58,1.67,MZ,1684103893
254,talnakh,69.4865,88.3972,263.82,97,100,3.73,RU,1684103893
255,olafsvik,64.8945,-23.7142,276.33,82,99,2.03,IS,1684103894
256,ballina,-28.8667,153.5667,289.83,99,100,1.26,AU,1684103894
257,chicama,-7.8447,-79.1469,296.45,73,2,3.33,PE,1684103894
258,razdolnoye,43.55,131.9167,284.38,89,83,5.14,RU,1684103894
259,fairbanks,64.8378,-147.7164,293.2,24,0,6.17,US,1684103894
260,hobyo,5.3505,48.5268,300.08,79,97,10.35,SO,1684103895
261,huilong,31.8111,121.655,295.05,68,0,1.07,CN,1684103895
262,kumluca,36.3703,30.2869,295.03,55,18,1.8,TR,1684103895
263,van,38.4924,43.3831,279.79,65,40,4.12,TR,1684103895
264,kisangani,0.5167,25.2,296.79,77,72,0.45,CD,1684103895
265,sao joao da barra,-21.6403,-41.0511,294.2,73,90,3.17,BR,1684103657
266,carupano,10.6678,-63.2585,299.95,80,36,5.85,VE,1684103896
267,alofi,-19.0595,-169.9187,299.09,78,96,7.2,NU,1684103896
268,maceio,-9.6658,-35.7353,298.84,88,40,2.06,BR,1684103763
269,umm lajj,25.0213,37.2685,299.76,55,100,2.59,SA,1684103896
270,egvekinot,66.3167,-179.1667,267.38,65,77,1.83,RU,1684103896
271,martinsville,36.6915,-79.8725,298.25,55,0,2.06,US,1684103739
272,vangaindrano,-23.35,47.6,295.22,91,58,1.49,MG,1684103897
273,san jose,37.3394,-121.895,304.09,43,20,7.2,US,1684103492
274,torbay,47.6666,-52.7314,280.59,78,75,9.77,CA,1684103898
275,rio gallegos,-51.6226,-69.2181,284.18,58,0,5.14,AR,1684103898
276,hoi an,15.8794,108.335,299.13,92,98,1.85,VN,1684103704
277,necochea,-38.5473,-58.7368,287.03,85,99,3.31,AR,1684103899
278,yumen,40.2833,97.2,290.65,18,94,2.59,CN,1684103899
279,magan,39.9683,-3.931,288.44,50,42,2.31,ES,1684103899
280,kuytun,54.3419,101.5036,273.9,50,100,3.08,RU,1684103899
281,zhigansk,66.7697,123.3711,274.33,98,100,5.76,RU,1684103899
282,goderich,43.7501,-81.7165,285.33,58,100,4.63,CA,1684103900
283,corinth,37.9407,22.9573,289.76,67,99,1.32,GR,1684103900
284,hasaki,35.7333,140.8333,290.49,70,100,6.65,JP,1684103900
285,wajima,37.4,136.9,288.97,84,100,1.2,JP,1684103900
286,zhezkazgan,47.8043,67.7144,280.65,65,99,6.39,KZ,1684103900
287,ajdabiya,30.7554,20.2263,300.48,23,81,7.7,LY,1684103901
288,aklavik,68.2191,-135.0107,290.25,45,9,3.36,CA,1684103901
289,ismailia,30.6043,32.2723,291.21,77,98,3.03,EG,1684103901
290,palmer,42.1584,-72.3287,291.49,23,67,1.34,US,1684103901
291,dunn,44.95,-91.8835,294.46,48,0,0.0,US,1684103901
292,sawakin,19.1059,37.3321,299.89,58,0,1.79,SD,1684103901
293,coquimbo,-29.9533,-71.3436,290.0,77,100,1.54,CL,1684103902
294,anloga,5.7947,0.8973,302.04,79,60,6.64,GH,1684103902
295,pangnirtung,66.1451,-65.7125,272.18,96,100,0.56,CA,1684103902
296,maneromango,-7.1988,38.7848,293.08,97,55,0.68,TZ,1684103902
297,caucaia,-3.7361,-38.6531,301.5,77,20,4.12,BR,1684103903
298,ransang,8.9603,117.5828,300.0,86,83,1.23,PH,1684103903
299,luanda,-8.8368,13.2343,299.15,83,20,3.09,AO,1684103607
300,plouzane,48.3833,-4.6167,285.18,93,100,3.09,FR,1684103903
301,bell ville,-32.6259,-62.6887,289.15,62,4,3.9,AR,1684103903
302,marrakesh,31.6315,-8.0083,296.19,31,0,6.17,MA,1684103903
303,porto novo,6.4965,2.6036,303.05,85,95,3.92,BJ,1684103904
304,airai,-8.9266,125.4092,288.83,80,76,0.66,TL,1684103904
305,kargasok,59.0556,80.8572,272.3,72,81,2.62,RU,1684103904
306,tagusao,9.1924,117.8141,300.38,83,85,2.04,PH,1684103904
307,emerald,-23.5333,148.1667,291.12,89,100,6.21,AU,1684103905
308,huejuquilla el alto,22.6,-103.8667,300.21,13,2,10.58,MX,1684103905
309,saint-francois,46.4154,3.9054,284.84,87,47,4.63,FR,1684103905
310,araouane,18.9048,-3.5265,304.9,37,100,3.55,ML,1684103905
311,andenes,69.3143,16.1194,282.14,71,0,5.14,NO,1684103905
312,san policarpo,12.1791,125.5072,299.7,83,68,1.0,PH,1684103906
313,chuy,-33.6971,-53.4616,288.96,81,38,2.63,UY,1684103906
314,meulaboh,4.1363,96.1285,298.06,89,78,1.71,ID,1684103906
315,istanbul,41.0351,28.9833,287.83,55,75,3.6,TR,1684103867
316,makakilo city,21.3469,-158.0858,301.33,62,20,6.69,US,1684103906
317,englehart,47.8169,-79.8664,292.46,22,0,5.66,CA,1684103908
318,thio,-21.6167,166.2167,299.13,71,79,6.82,NC,1684103908
319,san pedro,14.35,121.0167,301.12,86,40,0.51,PH,1684103908
320,camacha,33.0833,-16.3333,290.83,68,40,5.66,PT,1684103908
321,tilichiki,60.4667,166.1,274.04,84,97,2.24,RU,1684103908
322,arman,59.7,150.1667,278.76,54,30,1.78,RU,1684103908
323,magadi,12.9667,77.2333,295.67,79,95,3.45,IN,1684103909
324,bodden town,19.2833,-81.25,302.55,75,40,3.09,KY,1684103909
325,mathathane,-22.2687,28.7495,291.62,63,3,3.65,BW,1684103909
326,darhan,49.4867,105.9228,276.14,41,83,2.77,MN,1684103909
327,puerto escondido,15.85,-97.0667,304.61,74,40,4.12,MX,1684103909
328,hay river,60.8156,-115.7999,297.13,18,40,3.09,CA,1684103910
329,charters towers,-20.1,146.2667,294.79,62,72,2.54,AU,1684103910
330,victor harbor,-35.5667,138.6167,287.97,55,12,1.79,AU,1684103910
331,prince rupert,54.3161,-130.3201,292.2,69,0,5.14,CA,1684103910
332,zhaotong,27.3167,103.7167,284.74,89,100,0.62,CN,1684103910
333,san ramon,37.7799,-121.978,303.29,55,0,6.17,US,1684103652
334,nchelenge,-9.3451,28.734,294.43,70,46,2.32,ZM,1684103911
335,makarska,43.2969,17.0178,291.15,98,100,9.02,HR,1684103911
336,verkhnyaya inta,65.9811,60.3094,275.91,93,100,7.26,RU,1684103911
337,alyangula,-13.8483,136.4192,299.32,72,84,3.56,AU,1684103911
338,bilma,18.6853,12.9164,305.71,11,4,1.56,NE,1684103911
339,namatanai,-3.6667,152.4333,301.78,76,53,1.48,PG,1684103912
340,huntsville,34.7304,-86.5861,305.04,63,20,3.6,US,1684103690
341,guane,22.2025,-84.0875,300.98,69,53,2.25,CU,1684103912
342,port lincoln,-34.7333,135.8667,288.81,62,3,2.02,AU,1684103912
343,nanortalik,60.1432,-45.2371,273.78,92,84,1.77,GL,1684103912
344,monchengladbach,51.2,6.4333,288.61,79,75,3.09,DE,1684103912
345,vilyuysk,63.7553,121.6247,276.62,68,100,1.39,RU,1684103913
346,mar del plata,-38.0023,-57.5575,289.87,80,0,2.24,AR,1684103705
347,bengkulu,-3.8004,102.2655,297.8,92,92,1.84,ID,1684103913
348,mehamn,71.0357,27.8492,280.12,87,100,4.63,NO,1684103913
349,canguaretama,-6.38,-35.1289,298.4,85,19,3.71,BR,1684103913
350,whitecourt,54.1502,-115.6855,300.73,19,75,4.12,CA,1684103913
351,rocha,-34.4833,-54.3333,289.64,66,36,3.03,UY,1684103666
352,nome,64.5011,-165.4064,274.35,93,100,9.26,US,1684103914
353,grass valley,39.2191,-121.0611,301.93,40,0,3.13,US,1684103783
354,tual,-5.6667,132.75,300.95,78,78,3.11,ID,1684103914
355,odienne,9.51,-7.5692,296.45,93,66,1.09,CI,1684103914
356,semypolky,50.7167,30.9333,287.56,69,19,2.08,UA,1684103915
357,alice springs,-23.7,133.8833,285.9,88,75,6.35,AU,1684103915
358,longyearbyen,78.2186,15.6401,264.61,88,97,0.9,SJ,1684103915
359,malappuram,11.0667,76.0667,300.24,83,20,2.06,IN,1684103915
360,maryville,35.7565,-83.9705,299.88,85,75,1.54,US,1684103867
361,marsabit,2.3284,37.9899,292.14,65,30,6.03,KE,1684103915
362,homer,59.6425,-151.5483,284.09,58,100,6.17,US,1684103724
363,pandan,14.0453,124.1694,301.0,78,87,1.95,PH,1684103916
364,khatanga,71.9667,102.5,260.77,96,70,3.76,RU,1684103916
365,jalingo,8.8833,11.3667,300.51,67,97,2.57,NG,1684103917
366,ilulissat,69.2167,-51.1,271.16,80,53,3.6,GL,1684103880
367,tocopilla,-22.092,-70.1979,292.82,77,35,0.57,CL,1684103917
368,two rivers,44.1539,-87.5693,287.0,53,0,3.6,US,1684103918
369,awbari,26.5921,12.7805,305.3,14,90,4.51,LY,1684103918
370,rosarito,32.3333,-117.0333,295.17,67,9,2.98,MX,1684103918
371,rurrenabaque,-14.4413,-67.5278,295.5,78,6,0.64,BO,1684103918
372,kirakira,-10.4544,161.9205,302.38,74,99,0.9,SB,1684103918
373,port-gentil,-0.7193,8.7815,301.13,94,40,4.12,GA,1684103918
374,beyneu,45.3167,55.2,285.34,82,100,3.78,KZ,1684103919
375,tura,25.5198,90.2201,292.52,67,36,1.07,IN,1684103919
376,ketchikan,55.3422,-131.6461,292.41,63,0,5.14,US,1684103736
377,grand gaube,-20.0064,57.6608,296.69,82,11,0.89,MU,1684103919
378,carroll,39.5501,-77.0164,298.32,31,0,3.09,US,1684103919
379,chapais,49.7834,-74.8492,287.03,41,55,4.45,CA,1684103920
380,waingapu,-9.6567,120.2641,295.41,78,58,2.91,ID,1684103920
381,pacific grove,36.6177,-121.9166,293.97,74,0,6.71,US,1684103873
382,port hardy,50.6996,-127.4199,295.25,53,0,3.6,CA,1684103682
383,newport,51.5877,-2.9984,285.99,88,100,3.36,GB,1684103920
384,padang,-0.9492,100.3543,299.19,89,59,1.84,ID,1684103920
385,methoni,36.8197,21.7049,292.71,66,86,4.03,GR,1684103921
386,sampit,-2.5333,112.95,296.57,94,37,0.57,ID,1684103921
387,bingol,38.8847,40.4939,279.51,63,0,3.32,TR,1684103921
388,wukari,7.85,9.7833,297.59,86,100,1.76,NG,1684103921
389,isangel,-19.55,169.2667,298.21,73,100,7.54,VU,1684103921
390,cienaga de oro,8.8744,-75.6203,303.01,90,100,2.12,CO,1684103922
391,knoxville,35.9606,-83.9207,299.88,74,0,1.54,US,1684103777
392,novosibirsk,55.0411,82.9344,273.76,44,0,2.0,RU,1684103897
393,caetite,-14.0694,-42.475,293.25,91,100,4.01,BR,1684103658
394,luderitz,-26.6481,15.1594,289.67,44,0,4.75,NA,1684103922
395,itamaraju,-17.0392,-39.5311,294.22,96,5,0.56,BR,1684103923
396,sao filipe,14.8961,-24.4956,296.21,80,33,3.57,CV,1684103923
397,kamenka,51.3223,42.7678,281.97,89,37,3.62,RU,1684103923
398,darapidap,17.2131,120.4114,300.57,78,95,0.55,PH,1684103923
399,horadiz,39.4488,47.3353,284.58,89,100,0.32,AZ,1684103923
400,santa rosa,14.3122,121.1114,301.54,82,78,1.36,PH,1684103696
401,bathsheba,13.2167,-59.5167,301.49,74,40,5.66,BB,1684103924
402,carauari,-4.8828,-66.8958,297.34,97,56,1.33,BR,1684103924
403,shillong,25.5689,91.8831,285.76,89,98,0.77,IN,1684103924
404,geraldton,-28.7667,114.6,284.38,76,0,2.57,AU,1684103924
405,workington,54.6425,-3.5441,282.04,80,24,0.89,GB,1684103924
406,sao jose da coroa grande,-8.8978,-35.1478,299.22,78,77,3.59,BR,1684103924
407,kavaratti,10.5669,72.642,302.23,77,88,3.96,IN,1684103925
408,novosil,52.9739,37.0405,281.81,82,56,2.62,RU,1684103925
409,namibe,-15.1961,12.1522,294.3,80,0,2.26,AO,1684103925
410,chiang klang,19.2938,100.8617,295.29,97,100,0.64,TH,1684103925
411,copperas cove,31.1241,-97.9031,300.75,62,40,2.06,US,1684103674
412,evensk,61.95,159.2333,273.29,82,75,0.36,RU,1684103927
413,banon,40.8382,-1.1909,287.74,44,0,3.09,ES,1684103927
414,kysyl-syr,63.8986,122.7617,277.05,73,100,2.18,RU,1684103927
415,abu kamal,34.4506,40.9171,295.91,27,0,4.31,SY,1684103927
416,hualmay,-11.0964,-77.6139,295.6,76,2,5.03,PE,1684103927
417,okhotsk,59.3833,143.3,277.99,61,87,3.59,RU,1684103928
418,gold coast,-28.0,153.4333,292.61,90,100,4.12,AU,1684103928
419,plettenberg bay,-34.0527,23.3716,287.64,72,99,1.48,ZA,1684103928
420,howard springs,-12.497,131.047,296.1,97,49,2.31,AU,1684103928
421,gorin,51.1983,136.6669,291.48,52,77,5.18,RU,1684103928
422,bo phloi,14.3236,99.5161,297.81,81,39,1.85,TH,1684103929
423,shenzhen,22.5455,114.0683,296.39,96,100,1.04,CN,1684103852
424,yabrud,33.9674,36.6574,288.08,51,21,0.45,SY,1684103929
425,inhambane,-23.865,35.3833,294.53,83,32,1.56,MZ,1684103929
426,norman wells,65.282,-126.8329,294.17,26,20,2.57,CA,1684103929
427,baiyin,36.5583,104.2081,289.95,40,1,0.69,CN,1684103929
428,general roca,-39.0333,-67.5833,289.05,25,54,3.87,AR,1684103720
429,peleduy,59.6289,112.7406,273.17,70,22,3.1,RU,1684103930
430,singkang,2.1006,102.7994,297.49,95,38,1.13,MY,1684103930
431,safaga,26.7292,33.9365,298.91,36,2,4.69,EG,1684103930
432,barcelos,41.5388,-8.6151,289.73,87,56,3.07,PT,1684103930
433,escanaba,45.7453,-87.0646,291.77,29,0,3.6,US,1684103774
434,koungheul,13.9833,-14.8,304.42,29,45,5.36,SN,1684103930
435,hit,33.6416,42.8251,297.41,23,0,4.74,IQ,1684103931
436,gifhorn,52.4833,10.55,287.09,76,100,0.0,DE,1684103931
437,kashi,39.4547,75.9797,293.71,21,0,8.0,CN,1684103931
438,mumbwa,-14.9783,27.0619,289.47,55,29,2.03,ZM,1684103931
439,rach gia,10.0167,105.0833,300.61,80,7,2.26,VN,1684103931
440,graaff-reinet,-32.2522,24.5308,282.55,98,100,4.52,ZA,1684103932
441,batagay-alyta,67.8006,130.4114,270.01,85,100,1.11,RU,1684103932
442,sechura,-5.5569,-80.8222,300.49,63,49,6.82,PE,1684103932
443,ayan,56.45,138.1667,274.73,79,98,4.07,RU,1684103932
444,yulara,-25.2406,130.9889,287.51,60,3,3.88,AU,1684103932
445,el prat de llobregat,41.3278,2.0947,290.43,84,20,1.54,ES,1684103933
446,verkhnevilyuysk,63.4453,120.3167,276.76,59,100,0.92,RU,1684103933
447,anadyr,64.75,177.4833,268.43,74,0,9.0,RU,1684103933
448,lodeynoye pole,60.726,33.5531,282.35,64,100,1.65,RU,1684103933
449,berberati,4.2612,15.7922,295.36,90,100,1.88,CF,1684103933
450,hambantota,6.1241,81.1185,300.59,84,100,8.82,LK,1684103933
451,bulgan,48.8125,103.5347,274.71,47,99,2.6,MN,1684103934
452,fort nelson,58.8053,-122.7002,298.68,29,75,2.06,CA,1684103934
453,salalah,17.0151,54.0924,303.2,74,20,2.57,OM,1684103934
454,tokur,53.1333,132.9,286.4,59,29,3.15,RU,1684103934
455,sungairaya,0.7,108.9,297.8,90,66,2.72,ID,1684103934
456,cap malheureux,-19.9842,57.6142,296.74,82,9,0.89,MU,1684103934
457,presidencia roque saenz pena,-26.7852,-60.4388,291.2,55,0,3.18,AR,1684103935
458,rexburg,43.826,-111.7897,295.14,30,100,3.6,US,1684103935
459,tanabe,33.7333,135.3667,290.95,91,89,1.06,JP,1684103936
460,wenling,28.3669,121.36,293.44,82,89,2.16,CN,1684103936
461,pisz,53.6274,21.8125,284.96,81,59,3.37,PL,1684103936
462,gornopravdinsk,60.05,69.9,273.51,62,71,1.96,RU,1684103937
463,nalut,30.3333,10.85,299.47,32,41,7.76,LY,1684103937
464,yelizovo,53.1873,158.3805,288.23,44,0,7.0,RU,1684103937
465,chhatak,25.0333,91.6667,293.93,87,75,1.78,BD,1684103938
466,ziro,27.6333,93.8333,283.16,96,100,0.62,IN,1684103938
467,belmonte,-15.8631,-38.8828,297.68,83,42,1.85,BR,1684103938
468,yar-sale,66.8333,70.8333,273.77,93,95,6.95,RU,1684103938
469,dalupaon,13.5517,122.9457,300.85,79,66,1.09,PH,1684103938
470,glens falls,43.3095,-73.644,290.86,38,0,5.14,US,1684103939
471,santa fe,-31.6333,-60.7,294.82,72,7,1.79,AR,1684103702
472,piacabucu,-10.4056,-36.4344,298.95,79,100,4.09,BR,1684103661
473,shenjiamen,29.9576,122.298,292.02,87,94,3.33,CN,1684103939
474,singaraja,-8.112,115.0882,296.95,74,9,2.86,ID,1684103939
475,ostashkov,57.1467,33.1075,284.17,70,100,2.93,RU,1684103939
476,clinton,42.587,-82.9199,291.16,46,100,5.66,US,1684103752
477,along,28.1667,94.7667,292.3,99,100,0.69,IN,1684103940
478,xocali,39.913,46.7903,282.8,94,100,1.99,AZ,1684103940
479,voyvozh,62.892,54.9635,276.29,79,93,2.12,RU,1684103940
480,ocampo,21.65,-101.5,296.46,20,67,8.2,MX,1684103940
481,sakakah,29.9697,40.2064,298.91,18,99,2.42,SA,1684103941
482,busia,0.4544,34.0758,291.85,90,78,1.78,UG,1684103941
483,vanimo,-2.6741,141.3028,300.39,87,94,2.12,PG,1684103941
484,batetskiy,58.6461,30.3027,283.28,68,71,1.19,RU,1684103941
485,qasigiannguit,68.8193,-51.1922,271.29,85,67,2.63,GL,1684103941
486,amberley,39.2048,-84.428,297.77,52,20,5.14,US,1684103941
487,torrington,41.8007,-73.1212,291.25,37,95,1.79,US,1684103942
488,berlevag,70.8578,29.0864,280.15,87,100,6.17,NO,1684103942
489,disna,55.568,28.1971,284.62,74,20,2.13,BY,1684103942
490,chlumcany,49.6326,13.3132,283.87,89,100,1.03,CZ,1684103942
491,nogliki,51.8333,143.1667,285.54,65,37,3.74,RU,1684103943
492,nador,35.174,-2.9287,293.29,40,0,1.54,MA,1684103943
493,srednekolymsk,67.45,153.6833,273.99,56,56,0.45,RU,1684103943
494,sioux lookout,50.1001,-91.917,294.19,24,75,3.09,CA,1684103943
495,gravdal,68.1214,13.5031,280.0,88,4,3.89,NO,1684103943
496,maniwaki,46.3834,-75.966,289.36,20,0,4.63,CA,1684103828
497,auki,-8.7676,160.7034,302.54,71,59,0.82,SB,1684103944
498,catamarca,-28.4696,-65.7852,295.7,69,0,4.42,AR,1684103944
499,flin flon,54.7682,-101.865,300.06,22,40,6.17,CA,1684103944
500,fort-shevchenko,44.5086,50.263,289.11,68,100,4.12,KZ,1684103944
501,garmsar,35.2182,52.3409,292.05,42,2,3.93,IR,1684103945
502,mandalgovi,45.7625,106.2708,281.77,45,72,5.26,MN,1684103946
503,leshukonskoye,64.8989,45.7622,279.55,85,98,1.88,RU,1684103946
504,tamorong,17.3333,120.4333,300.13,79,99,0.86,PH,1684103946
505,pisco,-13.7,-76.2167,297.18,64,0,7.72,PE,1684103946
506,muzhi,65.3667,64.6667,276.26,91,100,7.65,RU,1684103946
507,balkhash,46.844,74.9804,285.27,58,100,8.59,KZ,1684103947
508,ust-nera,64.5667,143.2,273.07,72,22,2.03,RU,1684103947
509,grindavik,63.8424,-22.4338,278.41,87,100,2.06,IS,1684103947
510,huarmey,-10.0681,-78.1522,296.92,75,0,4.47,PE,1684103947
511,ushtobe,45.2514,77.9838,289.59,48,83,0.84,KZ,1684103947
512,san quintin,30.4833,-115.95,291.86,65,0,3.86,MX,1684103947
513,houma,29.5958,-90.7195,305.93,61,40,3.6,US,1684103741
514,jacareacanga,-6.2222,-57.7528,297.5,96,100,1.04,BR,1684103948
515,nevel,56.0209,29.9284,283.26,77,42,1.22,RU,1684103948
516,kutum,14.2,24.6667,299.95,19,10,3.27,SD,1684103948
517,energetik,51.7445,58.7934,281.06,67,7,2.72,RU,1684103948
518,tukrah,32.5341,20.5791,299.16,33,78,10.86,LY,1684103948
519,port hedland,-20.3167,118.5667,290.18,42,38,3.09,AU,1684103949
520,sovetskaya gavan,48.9723,140.2878,286.01,55,42,5.55,RU,1684103949
521,chur,46.8499,9.5329,284.33,97,100,0.71,CH,1684103949
522,nishihara,26.1842,127.7558,294.96,78,75,2.06,JP,1684103950
523,uray,60.1247,64.7758,276.55,73,82,3.06,RU,1684103950
524,zlitan,32.4674,14.5687,294.66,71,100,4.35,LY,1684103950
525,thunder bay,48.4001,-89.3168,291.1,22,40,8.75,CA,1684103736
526,goba,7.0167,39.9833,283.55,90,50,2.39,ET,1684103950
527,kenora,49.8167,-94.4337,294.69,26,40,3.6,CA,1684103951
528,grand baie,-20.0182,57.5802,296.73,82,10,0.45,MU,1684103951
529,neftcala,39.3742,49.2472,287.96,70,100,9.64,AZ,1684103951
530,conde,-7.2597,-34.9075,300.85,78,40,3.09,BR,1684103951
531,itarema,-2.9248,-39.9167,299.33,83,43,4.89,BR,1684103951
532,sumenep,-7.0167,113.8667,297.92,79,8,2.99,ID,1684103952
533,birjand,32.8663,59.2211,297.41,17,40,5.14,IR,1684103952
534,saurimo,-9.6608,20.3916,292.6,56,49,1.07,AO,1684103952
535,sovetskoye,52.2861,85.4131,280.3,89,97,4.33,RU,1684103952
536,mahibadhoo,3.7833,72.9667,301.32,79,100,9.33,MV,1684103952
537,adana,36.985,35.2881,292.16,94,40,2.06,TR,1684103953
538,lucea,18.451,-78.1736,298.63,69,43,1.73,JM,1684103953
539,stonewall,50.1344,-97.3268,299.66,26,4,4.06,CA,1684103953
540,los llanos de aridane,28.6585,-17.9182,291.01,70,75,6.69,ES,1684103953
541,cap-aux-meules,47.3821,-61.8597,278.18,81,75,8.75,CA,1684103953
542,ribeira brava,32.65,-17.0667,292.6,68,12,4.34,PT,1684103954
543,nevelsk,46.6733,141.8633,284.05,84,100,5.31,RU,1684103954
544,mercedes,-34.6515,-59.4307,292.51,62,97,3.26,AR,1684103954
545,okha,53.5739,142.9478,282.71,79,45,4.06,RU,1684103954
